{html_attributions: [], next_page_token: AdDdOWrQJrGYw3zjqueZMiA1u6unJtIptJOGNWhsaTGyYzg2L3Mzk7eBiSJs-VGIwbhcNVOYF1fEy769vS3cc5y3KF7iH1XXxPaKmynPofhfMX79c1qisDgkBAPKQY3q9nbvh5uCsK2wGTCNV8VezqB-t98h6Q934q2pEuxjntzHQe5EBBdaBTnw0osXsjnuozbV6rNkH9TUsAjEhl7QQVFp31lcPilChVEEl2718gm4YY8_7gyR3jFoZmKfNKp8ngL5z5whZoZNUaK56wCsw3b8ZgwrovZpSf2o3cAIK5cxSgbpLwLO7YtN1x2kAeUN2sGHE75IXQNRnN8nfu0Pl5UkB9pEwf0mibPtRAcpKnZOwY1slPjObmRkkkiUMGH5aqbnvsNtwJSyy_G8JyLohEp3z6X_6yOv-RshC1mNkl_uaa2nVSCQI7uDc4U_fg, results: [{business_status: OPERATIONAL, geometry: {location: {lat: 12.9073364, lng: 77.5716208}, viewport: {northeast: {lat: 12.9087195802915, lng: 77.57290628029152}, southwest: {lat: 12.9060216197085, lng: 77.57020831970851}}}, icon: https://maps.gstatic.com/mapfiles/place_api/icons/v1/png_71/hospital-71.png, icon_background_color: #F88181, icon_mask_base_uri: https://maps.gstatic.com/mapfiles/place_api/icons/v2/hospital-H_pinlet, name: Ring Road Hospital, opening_hours: {open_now: true}, photos: [{height: 4160, html_attributions: [<a href="https://maps.google.com/maps/contrib/115190539342314949152">Imamuddin Ali</a>], photo_reference: AdDdOWr8cZAoMMfDnvGzNqSX7eTHg-GQwrjfgHXLECUPU1RG_uKl0EgNb6XQpH2gYd7UkeKbT7V05livH0DoYytm04L5WVBul-Td-rP2hYjVQ6R6gP8nBDWVi_3lP5yNF4whsDS98-m5C9AVmAWXj_wg9MiQjNigz3zB_s89awB4mJXEwqcs, width: 3120}], place_id: ChIJyflxDmUVrjsRDwKNWoY2qjY, rating: 3.1, reference: ChIJyflxDmUVrjsRDwKNWoY2qjY, scope: GOOGLE, types: [hospital, health, point_of_interest, establishment], user_ratings_total: 55, vicinity: WH4C+WJQ, Umarbagh Layout, Banashankari Temple Ward, Bengaluru}, {business_status: OPERATIONAL, geometry: {location: {lat: 12.9058626, lng: 77.5800158}, viewport: {northeast: {lat: 12.9072422802915, lng: 77.5813653302915}, southwest: {lat: 12.9045443197085, lng: 77.5786673697085}}}, icon: https://maps.gstatic.com/mapfiles/place_api/icons/v1/png_71/generic_business-71.png, icon_background_color: #7B9EB0, icon_mask_base_uri: https://maps.gstatic.com/mapfiles/place_api/icons/v2/generic_pinlet, name: Janani Clinic, opening_hours: {open_now: false}, photos: [{height: 4000, html_attributions: [<a href="https://maps.google.com/maps/contrib/101233648240779434749">Janani Clinic</a>], photo_reference: AdDdOWoqXjXPIGJTyJXMUoDnCuPrDBftIxogQncUaadvc-0VGT7sNISJkQRuXIKgzpjsjsGLcs16ZrFnuTR7ltsi28M0ngCBCu7snOHLF8aGLarUmpWYHYu48OWnWQ5as9wWGP2AWe4AzH3Nqjop7keZyQ-MvrZBe7JGeTY_J--Zrn6cieGv, width: 6000}], place_id: ChIJGT5uPWwVrjsRxdRLzyfCSLc, plus_code: {compound_code: WH4J+82 Bengaluru, Karnataka, India, global_code: 7J4VWH4J+82}, rating: 4.1, reference: ChIJGT5uPWwVrjsRxdRLzyfCSLc, scope: GOOGLE, types: [hospital, doctor, health, point_of_interest, establishment], user_ratings_total: 97, vicinity: 28, 16th Cross, JP Nagar 6th Phase, 33rd Main, MG Layout, Bengaluru}, {business_status: OPERATIONAL, geometry: {location: {lat: 12.903762, lng: 77.5856344}, viewport: {northeast: {lat: 12.9051127302915, lng: 77.58704538029151}, southwest: {lat: 12.90241476970849, lng: 77.5843474197085}}}, icon: https://maps.gstatic.com/mapfiles/place_api/icons/v1/png_71/hospital-71.png, icon_background_color: #F88181, icon_mask_base_uri: https://maps.gstatic.com/mapfiles/place_api/icons/v2/hospital-H_pinlet, name: MN Speciality & Aesthetic Clinic, opening_hours: {open_now: false}, photos: [{height: 704, html_attributions: [<a href="https://maps.google.com/maps/contrib/100714712444737791768">MN Speciality &amp; Aesthetic Clinic</a>], photo_reference: AdDdOWr5Hvnb4IsxffJRdeYbHG4mKvr_0LPGFe3dnElLi_fU6sdswiQUMk8m7XPZf9gistsrublxHAENLRmMNWB0Nzk7k7SMGmBo59cOtnI2PWSISmhox7TbyP9Vd8byvubliPE4yOW3DHBHkyuV7o4FhS1SC9aRLcNDHuTTV1hUgCre9Grr, width: 750}], place_id: ChIJmdRiuhQVrjsRnONJiNOL0xA, plus_code: {compound_code: WH3P+G7 Bengaluru, Karnataka, India, global_code: 7J4VWH3P+G7}, rating: 3.9, reference: ChIJmdRiuhQVrjsRnONJiNOL0xA, scope: GOOGLE, types: [hospital, health, point_of_interest, establishment], user_ratings_total: 79, vicinity: opp. to Idbi bank, 9, 24th Main Road, JP Nagar 6th Phase, J. P. Nagar, Bengaluru}, {business_status: CLOSED_TEMPORARILY, geometry: {location: {lat: 12.9019375, lng: 77.585911}, viewport: {northeast: {lat: 12.9032861802915, lng: 77.58722223029152}, southwest: {lat: 12.9005882197085, lng: 77.5845242697085}}}, icon: https://maps.gstatic.com/mapfiles/place_api/icons/v1/png_71/generic_business-71.png, icon_background_color: #7B9EB0, icon_mask_base_uri: https://maps.gstatic.com/mapfiles/place_api/icons/v2/generic_pinlet, name: Prakruthi Ayur Health Center, permanently_closed: true, place_id: ChIJoTLEuhQVrjsRzjQr-sZ_Qtc, plus_code: {compound_code: WH2P+Q9 Bengaluru, Karnataka, India, global_code: 7J4VWH2P+Q9}, rating: 4, reference: ChIJoTLEuhQVrjsRzjQr-sZ_Qtc, scope: GOOGLE, types: [hospital, health, point_of_interest, establishment], user_ratings_total: 2, vicinity: 243, 24th Main Road, Marenahalli, J P Nagar Phase 5, J. P. Nagar, Bengaluru}, {business_status: OPERATIONAL, geometry: {location: {lat: 12.9062193, lng: 77.576813}, viewport: {northeast: {lat: 12.9076533302915, lng: 77.57816318029151}, southwest: {lat: 12.9049553697085, lng: 77.57546521970849}}}, icon: https://maps.gstatic.com/mapfiles/place_api/icons/v1/png_71/generic_business-71.png, icon_background_color: #7B9EB0, icon_mask_base_uri: https://maps.gstatic.com/mapfiles/place_api/icons/v2/generic_pinlet, name: Apollo CM Fertility in JP Nagar, Bangalore, opening_hours: {open_now: false}, photos: [{height: 3648, html_attributions: [<a href="https://maps.google.com/maps/contrib/102129628455069958618">Apollo CM Fertility</a>], photo_reference: AdDdOWqkxMrC9H6cnx-0h1Uvt8Hu-QymWuei4-q0Ky9nevid3WC8iyBoWU1Cag70a-NG7V3XR_579-GtQl67WSnNtoEQbej9rBN6XKdZxjmtetUbKsDs4wZYbMR9tnh5EC-OmE12q7FxF8x-MwYIQxMGOoxlq_1LRsIFzijigyDNHZpWDCA9, width: 4890}], place_id: ChIJcSMT424VrjsR47vBz-PX6wg, plus_code: {compound_code: WH4G+FP Bengaluru, Karnataka, India, global_code: 7J4VWH4G+FP}, rating: 4.7, reference: ChIJcSMT424VrjsR47vBz-PX6wg, scope: GOOGLE, types: [hospital, health, point_of_interest, establishment], user_ratings_total: 685, vicinity: 607, 15th Cross Road, JP Nagar 6th Phase, J. P. Nagar, Bengaluru}, {business_status: OPERATIONAL, geometry: {location: {lat: 12.9010162, lng: 77.5861359}, viewport: {northeast: {lat: 12.9024012802915, lng: 77.5873299802915}, southwest: {lat: 12.8997033197085, lng: 77.5846320197085}}}, icon: https://maps.gstatic.com/mapfiles/place_api/icons/v1/png_71/generic_business-71.png, icon_background_color: #7B9EB0, icon_mask_base_uri: https://maps.gstatic.com/mapfiles/place_api/icons/v2/generic_pinlet, name: Silverline Clinics, opening_hours: {open_now: false}, photos: [{height: 3096, html_attributions: [<a href="https://maps.google.com/maps/contrib/113703199983496612557">Soumyadeep Sinha</a>], photo_reference: AdDdOWre3HAUGSLeka1sqrNyfMKuPEmlefWOgDHL-jLaN628pKgSkl_AjPzYTBVP0V2D_0umv5GYv71JARa3Y6nyyj1wY8fktPESpjRiSkca3wBtjf90wQ-5UpB1oJ8A95Q7prfuKrD-y-7HbixyA4fD5oXolIx7-eEtI35Dvb7zRtTk2hmX, width: 4128}], place_id: ChIJy-YePRUVrjsRfZ5t1c9FWUE, plus_code: {compound_code: WH2P+CF Bengaluru, Karnataka, India, global_code: 7J4VWH2P+CF}, rating: 3.9, reference: ChIJy-YePRUVrjsRfZ5t1c9FWUE, scope: GOOGLE, types: [hospital, beauty_salon, hair_care, doctor, health, point_of_interest, establishment], user_ratings_total: 32, vicinity: S.A Arcade, 205, 24th Main Road, Marenahalli, J P Nagar Phase 5, J. P. Nagar, Bengaluru}, {business_status: OPERATIONAL, geometry: {location: {lat: 12.91102, lng: 77.57970999999999}, viewport: {northeast: {lat: 12.9122984302915, lng: 77.5810535802915}, southwest: {lat: 12.9096004697085, lng: 77.57835561970849}}}, icon: https://maps.gstatic.com/mapfiles/place_api/icons/v1/png_71/hospital-71.png, icon_background_color: #F88181, icon_mask_base_uri: https://maps.gstatic.com/mapfiles/place_api/icons/v2/hospital-H_pinlet, name: Rajshekar Multi Speciality Hospital, opening_hours: {open_now: true}, photos: [{height: 3456, html_attributions: [<a href="https://maps.google.com/maps/contrib/109309502200038864191">Dinesh K</a>], photo_reference: AdDdOWoIldyTi_PURjByYDLQpOPIRLcVUG6hkRFCMeUT4MiZBKxKUOvZTfkrQa9WzO3Xa77rO_JHwv1owdqH-VkvlRih-CDKZz2X7tVjOH1fTmRqK-J6U-EAnSi1e1Ur9sSjRn-qMPJKnVjoQlRwkgf64fhScPU4EZIYqFK2Urf9a5uOEAfS, width: 4608}], place_id: ChIJv_FqGnIVrjsR5tVZEWOmBmM, plus_code: {compound_code: WH6H+CV Bengaluru, Karnataka, India, global_code: 7J4VWH6H+CV}, rating: 4.2, reference: ChIJv_FqGnIVrjsR5tVZEWOmBmM, scope: GOOGLE, types: [hospital, health, point_of_interest, establishment], user_ratings_total: 953, vicinity: opposite to Rajshekhar Hospital, 21, 9th Cross Road, Sarakki Industrial Layout, Phase 1, J. P. Nagar, Bengaluru}, {business_status: OPERATIONAL, geometry: {location: {lat: 12.9100841, lng: 77.5911955}, viewport: {northeast: {lat: 12.9115462802915, lng: 77.5925486302915}, southwest: {lat: 12.9088483197085, lng: 77.5898506697085}}}, icon: https://maps.gstatic.com/mapfiles/place_api/icons/v1/png_71/generic_business-71.png, icon_background_color: #7B9EB0, icon_mask_base_uri: https://maps.gstatic.com/mapfiles/place_api/icons/v2/generic_pinlet, name: Dr. Mohan's Diabetes Specialities Centre - JP Nagar, opening_hours: {open_now: false}, photos: [{height: 4096, html_attributions: [<a href="https://maps.google.com/maps/contrib/105294748015653359678">Neeraj Soundararajan</a>], photo_reference: AdDdOWrez94xx0PzIS0nGQctX-wHf_iVwETJwry3IiVLYTcqcTgOdo3NSEgAijNPppRNDITrthqke3fsHVq8yqUwj9JfTMWwdpYp4Arcxl2ys9QlqcvW4BBrDUTTcp6oFw9OWbZRz3-BBCMsl7UoUYkzr5dDxv0Zzw5N4oQ7mkwqO9_NAp5w, width: 2304}], place_id: ChIJladZABIVrjsRwFiUz89fCL8, plus_code: {compound_code: WH6R+2F Bengaluru, Karnataka, India, global_code: 7J4VWH6R+2F}, rating: 4.9, reference: ChIJladZABIVrjsRwFiUz89fCL8, scope: GOOGLE, types: [doctor, hospital, pharmacy, health, store, point_of_interest, establishment], user_ratings_total: 667, vicinity: 455, 9th Cross Road, Jeewan Griha Colony, 2nd Phase, J. P. Nagar, Bengaluru}, {business_status: OPERATIONAL, geometry: {location: {lat: 12.9160292, lng: 77.58563190000001}, viewport: {northeast: {lat: 12.9173376302915, lng: 77.58705593029151}, southwest: {lat: 12.9146396697085, lng: 77.5843579697085}}}, icon: https://maps.gstatic.com/mapfiles/place_api/icons/v1/png_71/hospital-71.png, icon_background_color: #F88181, icon_mask_base_uri: https://maps.gstatic.com/mapfiles/place_api/icons/v2/hospital-H_pinlet, name: Milann JP Nagar Fertility & Birthing Hospital, IVF Center, opening_hours: {open_now: true}, photos: [{height: 3120, html_attributions: [<a href="https://maps.google.com/maps/contrib/106503432344570957477">Praveen Narashima Murthy</a>], photo_reference: AdDdOWqgJblKkYd3jMZCOhrnUyDnb8s5p6HPQ8FE4yjk07vzaWHd8qtITg4ARsnPfpLGCgiAGUQ64lCwh_9uv3beZhEnTK_S_O5Q9oOv8fnygZ61GTVRQo3-h0EftOATo0o_rPmJ-5WpQU3rHTXJ3w_rOZH62RuVr7zFKZMYeAwpAhC7u-Dh, width: 4160}], place_id: ChIJL_2baKIVrjsRte_qVf0LHas, plus_code: {compound_code: WH8P+C7 Bengaluru, Karnataka, India, global_code: 7J4VWH8P+C7}, rating: 4.7, reference: ChIJL_2baKIVrjsRte_qVf0LHas, scope: GOOGLE, types: [hospital, health, point_of_interest, establishment], user_ratings_total: 1395, vicinity: #1109, 24th Main Road, 1st Phase, J. P. Nagar, Bengaluru}, {business_status: OPERATIONAL, geometry: {location: {lat: 12.9105211, lng: 77.5913539}, viewport: {northeast: {lat: 12.9118704302915, lng: 77.59271598029152}, southwest: {lat: 12.9091724697085, lng: 77.5900180197085}}}, icon: https://maps.gstatic.com/mapfiles/place_api/icons/v1/png_71/generic_business-71.png, icon_background_color: #7B9EB0, icon_mask_base_uri: https://maps.gstatic.com/mapfiles/place_api/icons/v2/generic_pinlet, name: Satva Ayur Health Center-For Psoriasis | Diabetes | Thyroid Care | Dandruff Treatment Centre, opening_hours: {open_now: false}, photos: [{height: 3456, html_attributions: [<a href="https://maps.google.com/maps/contrib/102051209152085904605">Satva Ayur Health Center-For Psoriasis | Diabetes | Thyroid Care | Dandruff Treatment Centre</a>], photo_reference: AdDdOWpEWVZ9UQE7jhyhJv_ogIz4_6nIwfnSStVttRzhaxpHekYbStq_MW48h9dcHg5NpewW01N3-ycooandvH9duqXickqLNOdfPCXG1DGPx-Qdk7Fc8oUUNdxJ-XwdhWqgGLOs4qfif8TzFEyEb29i1tTq9lnrONNDpt0tvVu7zUF475XB, width: 5184}], place_id: ChIJG9wvZZsVrjsR3a-jTUpm1Zo, plus_code: {compound_code: WH6R+6G Bengaluru, Karnataka, India, global_code: 7J4VWH6R+6G}, rating: 4.9, reference: ChIJG9wvZZsVrjsR3a-jTUpm1Zo, scope: GOOGLE, types: [hospital, doctor, health, point_of_interest, establishment], user_ratings_total: 66, vicinity: 8th, 1753, 17th Main, near Thirumala Temple, Cross, Central Mall Road, 2nd Phase, J. P. Nagar, Bengaluru}, {business_status: OPERATIONAL, geometry: {location: {lat: 12.9138099, lng: 77.5855979}, viewport: {northeast: {lat: 12.9151571302915, lng: 77.5870097302915}, southwest: {lat: 12.9124591697085, lng: 77.58431176970849}}}, icon: https://maps.gstatic.com/mapfiles/place_api/icons/v1/png_71/hospital-71.png, icon_background_color: #F88181, icon_mask_base_uri: https://maps.gstatic.com/mapfiles/place_api/icons/v2/hospital-H_pinlet, name: Alfa Clinic, opening_hours: {open_now: true}, photos: [{height: 318, html_attributions: [<a href="https://maps.google.com/maps/contrib/109750776182401231707">Alfa Clinic</a>], photo_reference: AdDdOWqqXFddbhsRs7JAN_pPzdkyZQqeBAQklAZt0zRi-fXTJ4roTutSaNesXkOt89pLtX4kLIgFDT2s1Xjf0pwCRGHG8goREGBDfdBG76vxyLcR2B3x0OWh8JuMgp5ZtMCNqnAdzWfNEE4ucu6oUPG1Xa8z-HWkexFX2EZ4RogJzh3hL0Mg, width: 480}], place_id: ChIJ____qBIVrjsR4FqSeduyBQA, plus_code: {compound_code: WH7P+G6 Bengaluru, Karnataka, India, global_code: 7J4VWH7P+G6}, rating: 4.5, reference: ChIJ____qBIVrjsR4FqSeduyBQA, scope: GOOGLE, types: [hospital, doctor, health, point_of_interest, establishment], user_ratings_total: 271, vicinity: opposite Shanthi Sagar Hotel, beside LIC Jeevan Soudha building, N-18, 24th Main Road, 1st Phase, J. P. Nagar, Bengaluru}, {business_status: OPERATIONAL, geometry: {location: {lat: 12.9180689, lng: 77.580922}, viewport: {northeast: {lat: 12.9194178302915, lng: 77.58222003029151}, southwest: {lat: 12.9167198697085, lng: 77.5795220697085}}}, icon: https://maps.gstatic.com/mapfiles/place_api/icons/v1/png_71/hospital-71.png, icon_background_color: #F88181, icon_mask_base_uri: https://maps.gstatic.com/mapfiles/place_api/icons/v2/hospital-H_pinlet, name: RespiCare - Jayanagar, opening_hours: {open_now: false}, photos: [{height: 698, html_attributions: [<a href="https://maps.google.com/maps/contrib/103445024655625230414">RespiCare - Jayanagar</a>], photo_reference: AdDdOWopoKJE_ftdR_8JwT0B3oM33poW2dZhSfikYnwSr8AwlnWUGwFjCg36boDlQOt8ipvehRjajM5Qa8qtLLE07DLzVkzQ011rtk1AI84j-9db05rZCVTlH4kZWRfTaWQVh1WKMhKrnrbNNADTTtWg1ELk8gDz6XZzsCDPxNjtYaettQsW, width: 1238}], place_id: ChIJcTZ60ZcVrjsRXQyijX-1axg, plus_code: {compound_code: WH9J+69 Bengaluru, Karnataka, India, global_code: 7J4VWH9J+69}, rating: 4.6, reference: ChIJcTZ60ZcVrjsRXQyijX-1axg, scope: GOOGLE, types: [hospital, doctor, health, point_of_interest, establishment], user_ratings_total: 54, vicinity: Metro Station, 5th Main 5th Block Jayanagar No.33/93, Ground Floor, Amarnivas Near, Rashtriya Vidyalaya Road, Bengaluru}, {business_status: OPERATIONAL, geometry: {location: {lat: 12.9054873, lng: 77.5792137}, viewport: {northeast: {lat: 12.9068702302915, lng: 77.5805635802915}, southwest: {lat: 12.90417226970849, lng: 77.57786561970849}}}, icon: https://maps.gstatic.com/mapfiles/place_api/icons/v1/png_71/hospital-71.png, icon_background_color: #F88181, icon_mask_base_uri: https://maps.gstatic.com/mapfiles/place_api/icons/v2/hospital-H_pinlet, name: Narayana Danthalaya, photos: [{height: 1920, html_attributions: [<a href="https://maps.google.com/maps/contrib/106279522851915121287">Siddaraju Ksiddaraju34</a>], photo_reference: AdDdOWrzdenwc4mSwHZHbnOqcDccY0HJp3z0bSoCEyEWcBPdAJ-i2Zy6GSAguVRVQoO5EdGAvvs3d4R96Qh1x4o4HRRx4BRsVOqqLf3LtvEKJ6VixX9NllhCGtmEYb_tmmSPi2-wYr0INl57zfi3ghw1f-qmlrjnXR8833WDrRxozPEGfLzX, width: 1080}], place_id: ChIJe0L3H58VrjsRp1KouCGyfD4, rating: 4.6, reference: ChIJe0L3H58VrjsRp1KouCGyfD4, scope: GOOGLE, types: [hospital, health, point_of_interest, establishment], user_ratings_total: 5, vicinity: WH4H+5MW, 17th Cross Road, MG Layout, JP Nagar Phase 6, J. P. Nagar, Bengaluru}, {business_status: CLOSED_TEMPORARILY, geometry: {location: {lat: 12.905652, lng: 77.5782984}, viewport: {northeast: {lat: 12.9069669802915, lng: 77.5796487302915}, southwest: {lat: 12.9042690197085, lng: 77.57695076970849}}}, icon: https://maps.gstatic.com/mapfiles/place_api/icons/v1/png_71/hospital-71.png, icon_background_color: #F88181, icon_mask_base_uri: https://maps.gstatic.com/mapfiles/place_api/icons/v2/hospital-H_pinlet, name: Sanjeevani clinic, permanently_closed: true, place_id: ChIJs17htpAVrjsRRwiguhTnbeo, plus_code: {compound_code: WH4H+78 Bengaluru, Karnataka, India, global_code: 7J4VWH4H+78}, rating: 4.6, reference: ChIJs17htpAVrjsRRwiguhTnbeo, scope: GOOGLE, types: [hospital, health, point_of_interest, establishment], user_ratings_total: 7, vicinity: 35th, 17th Cross Rd, 22nd Main Road, JP Nagar 6th Phase, Rose Garden, JP Nagar Phase 6, Bengaluru}, {business_status: OPERATIONAL, geometry: {location: {lat: 12.9033666, lng: 77.5808787}, viewport: {northeast: {lat: 12.9046555802915, lng: 77.5822179802915}, southwest: {lat: 12.9019576197085, lng: 77.5795200197085}}}, icon: https://maps.gstatic.com/mapfiles/place_api/icons/v1/png_71/hospital-71.png, icon_background_color: #F88181, icon_mask_base_uri: https://maps.gstatic.com/mapfiles/place_api/icons/v2/hospital-H_pinlet, name: Mediscan Hospital, place_id: ChIJ5aSqHS0-rjsROP4dvbdK-yE, plus_code: {compound_code: WH3J+89 Bengaluru, Karnataka, India, global_code: 7J4VWH3J+89}, reference: ChIJ5aSqHS0-rjsROP4dvbdK-yE, scope: GOOGLE, types: [hospital, health, point_of_interest, establishment], vicinity: 9, Banashankari, Bengaluru}, {business_status: OPERATIONAL, geometry: {location: {lat: 12.906159, lng: 77.58105789999999}, viewport: {northeast: {lat: 12.9075993302915, lng: 77.5824064302915}, southwest: {lat: 12.9049013697085, lng: 77.57970846970849}}}, icon: https://maps.gstatic.com/mapfiles/place_api/icons/v1/png_71/hospital-71.png, icon_background_color: #F88181, icon_mask_base_uri: https://maps.gstatic.com/mapfiles/place_api/icons/v2/hospital-H_pinlet, name: Arka Anugraha Hospital - Laparoscopic Surgery and Functional Medicine Hospital (Arka Health), opening_hours: {open_now: true}, photos: [{height: 1080, html_attributions: [<a href="https://maps.google.com/maps/contrib/107926173710356923872">Arka Anugraha Hospital - Laparoscopic Surgery and Functional Medicine Hospital (Arka Health)</a>], photo_reference: AdDdOWq1xb7IPGN4fUlGcFtZ58k3__agWkuUWU_oNxX_Tt_kPxexTBK8PPpbE1olVTuJkQCvAUG1F70k_WCapNwqvgsvcuktpJC2sUI19DWMDf_x-nu52MGmaWtOW3EZFu-J5c5k4kDSnQV1t7NukmPPXg_nw7y2Qk43am--V2jAoi3Ld2Gy, width: 1920}], place_id: ChIJ4Xqh8LYVrjsRbFR9cSmGO7M, plus_code: {compound_code: WH4J+FC Bengaluru, Karnataka, India, global_code: 7J4VWH4J+FC}, rating: 4.6, reference: ChIJ4Xqh8LYVrjsRbFR9cSmGO7M, scope: GOOGLE, types: [hospital, doctor, health, point_of_interest, establishment], user_ratings_total: 239, vicinity: 6th phase, 2, 15th Cross Road, 6th Phase, J. P. Nagar, Bengaluru}, {business_status: OPERATIONAL, geometry: {location: {lat: 12.906119, lng: 77.5813786}, viewport: {northeast: {lat: 12.9075800802915, lng: 77.58272703029151}, southwest: {lat: 12.9048821197085, lng: 77.58002906970849}}}, icon: https://maps.gstatic.com/mapfiles/place_api/icons/v1/png_71/generic_business-71.png, icon_background_color: #7B9EB0, icon_mask_base_uri: https://maps.gstatic.com/mapfiles/place_api/icons/v2/generic_pinlet, name: Dr Tulip's Obesity & Diabetes Surgery Centre | Bariatric surgery weightloss surgery specialist, opening_hours: {open_now: false}, photos: [{height: 291, html_attributions: [<a href="https://maps.google.com/maps/contrib/109781048075830242542">Dr Tulip&#39;s Obesity &amp; Diabetes Surgery Centre | Bariatric surgery weightloss surgery specialist</a>], photo_reference: AdDdOWrkhktvNaqtjdWlAkNWLDs8dLrO7pZ9FY2TkGD6gI0keDJ8CKUKGn6nWVPCCMTt7z_awythya_yplZWuez01YqiXY0vSi8dWNUYcuPIuGXNgUScldxEgHrrAHyHZoBG6S3T67bYwlzV4kcLg5cY1ekERhzbrm3EyJsk7oWXYy0GIrzD, width: 680}], place_id: ChIJPetDRl0UrjsRzizB8o6bqTs, plus_code: {compound_code: WH4J+CH Bengaluru, Karnataka, India, global_code: 7J4VWH4J+CH}, rating: 4.7, reference: ChIJPetDRl0UrjsRzizB8o6bqTs, scope: GOOGLE, types: [hospital, doctor, health, point_of_interest, establishment], user_ratings_total: 296, vicinity: 6th phase, 2, 15th Cross Road, KR Layout, JP Nagar Phase 6, J. P. Nagar, Bengaluru}, {business_status: OPERATIONAL, geometry: {location: {lat: 12.9060588, lng: 77.58142730000002}, viewport: {northeast: {lat: 12.9072820802915, lng: 77.58277328029152}, southwest: {lat: 12.9045841197085, lng: 77.5800753197085}}}, icon: https://maps.gstatic.com/mapfiles/place_api/icons/v1/png_71/generic_business-71.png, icon_background_color: #7B9EB0, icon_mask_base_uri: https://maps.gstatic.com/mapfiles/place_api/icons/v2/generic_pinlet, name: Dr. Saraswathi Ramesh - Best Gynecologist & Obstetrician | Maternity & Normal Delivery Specialist in Bangalore, opening_hours: {open_now: true}, photos: [{height: 4000, html_attributions: [<a href="https://maps.google.com/maps/contrib/116896081647580733943">Dr. Saraswathi Ramesh - Best Gynecologist &amp; Obstetrician | Maternity &amp; Normal Delivery Specialist in Bangalore</a>], photo_reference: AdDdOWoUw_ixvN3h4f_eMnf3Ljn5I6VEs-YDsKLR2eaT1FZcIvqPQzh5Au4wAlN4K-xuiCSRwl2Hn1z2Pd6AWFfLEWaj3nKUo2a_EwJ9-YvsDUe8UQpX3b70JxDuIKBXCgRfA57VM-TaXTv_rAkAogf85M77AgBIYStE2BKa1M8vdLjHtHgl, width: 6000}], place_id: ChIJUbFL15sVrjsRSklTGm_dWQk, plus_code: {compound_code: WH4J+CH Bengaluru, Karnataka, India, global_code: 7J4VWH4J+CH}, rating: 5, reference: ChIJUbFL15sVrjsRSklTGm_dWQk, scope: GOOGLE, types: [hospital, doctor, health, point_of_interest, establishment], user_ratings_total: 5, vicinity: 6th Phase, Arka Anugraha Hospital, Anugraha Hospital, Ground Floor, OPD -2, above Arka, J. P. Nagar, Bengaluru}, {business_status: OPERATIONAL, geometry: {location: {lat: 12.9062275, lng: 77.5813414}, viewport: {northeast: {lat: 12.9076342302915, lng: 77.58269013029151}, southwest: {lat: 12.9049362697085, lng: 77.5799921697085}}}, icon: https://maps.gstatic.com/mapfiles/place_api/icons/v1/png_71/generic_business-71.png, icon_background_color: #7B9EB0, icon_mask_base_uri: https://maps.gstatic.com/mapfiles/place_api/icons/v2/generic_pinlet, name: Arka Ketamine Clinic, opening_hours: {open_now: true}, photos: [{height: 3456, html_attributions: [<a href="https://maps.google.com/maps/contrib/105586786028134458875">Arka Ketamine &amp; Integrative Psychiatry Clinic - Psychedelic Healing &amp; Mental Health Experts</a>], photo_reference: AdDdOWrV-3HU5vNE8WT2JIXI3PkQSDwyH8HFBKL1Pv2WRm7-rDJi-ev6GPj4M1RZ8jw8exQkW_eLqFwU80nquSpj1LFYCWzRU48SI3gaXiRyQgYGaf4Rf7zX3ZN8ItPZltF3a-TIDprlpRUI7suxPsPRa4JvpE8ERHx8MV7OgTiuBnR2fzPQ, width: 5184}], place_id: ChIJjzUaSMEVrjsR87keV36ejmQ, plus_code: {compound_code: WH4J+FG Bengaluru, Karnataka, India, global_code: 7J4VWH4J+FG}, rating: 4.5, reference: ChIJjzUaSMEVrjsR87keV36ejmQ, scope: GOOGLE, types: [hospital, health, point_of_interest, establishment], user_ratings_total: 4, vicinity: 2nd Floor, Arka Anugraha Hospital, 15th Cross Road, J P Nagar Phase 5, Bengaluru}, {business_status: OPERATIONAL, geometry: {location: {lat: 12.9074301, lng: 77.5785732}, viewport: {northeast: {lat: 12.9087835302915, lng: 77.57985033029149}, southwest: {lat: 12.9060855697085, lng: 77.57715236970849}}}, icon: https://maps.gstatic.com/mapfiles/place_api/icons/v1/png_71/hospital-71.png, icon_background_color: #F88181, icon_mask_base_uri: https://maps.gstatic.com/mapfiles/place_api/icons/v2/hospital-H_pinlet, name: J P nagar uphc, opening_hours: {open_now: false}, photos: [{height: 3464, html_attributions: [<a href="https://maps.google.com/maps/contrib/108786684560192004174">Ravi Gandhi</a>], photo_reference: AdDdOWpTqBFVwPluCHRlHQDc7_IekupQkHPi-0cyHyGfs8WpL6NnZRpanVLbxciiggy62AQ5A5-55nH_tTDCus-7tv1MZG6ZZneOjRcHK2bK2W1RpDoON3oZIflyKRw5vOdz9DvF5tBtZf2WSnrX_M_b1CtimYruDflVr4Y3YfROv5oTl5Xt, width: 4618}], place_id: ChIJn_O6FZgVrjsRCaWwGxutbnA, plus_code: {compound_code: WH4H+XC Bengaluru, Karnataka, India, global_code: 7J4VWH4H+XC}, rating: 4.3, reference: ChIJn_O6FZgVrjsRCaWwGxutbnA, scope: GOOGLE, types: [hospital, health, point_of_interest, establishment], user_ratings_total: 50, vicinity: 994, 13th Cross Road, 1st Phase, J. P. Nagar, Bengaluru}], status: OK}